name,url,adress,phone,schedule,nb_reviews,global_rating,Food_rating,Service_rating,Value_rating,Atmosphere_rating,Meals_detail,FEATURES_detail,CUISINES_detail,Special Diets_detail,priceMin,priceMax,star,latitude,longitude,id
agora,https://www.tripadvisor.in//Restaurant_Review-g196537-d3863537-Reviews-Agora-Vannes_Morbihan_Brittany.html,"19 Rue de la Boucherie, 56000, Vannes France",+33 2 97 61 50 90, Closed now: ,891,4.5,4.5,4.5,4.5,4.5,"Lunch, Dinner","Highchairs Available, Wheelchair Accessible, Free Wifi, Reservations, Seating, Serves Alcohol, Accepts Credit Cards, Table Service, Wine and Beer, Accepts Visa, Non-smoking restaurants, Gift Cards Available",,,29.0,68.0,Aucune distinction,47.6598524,-2.7588857,1
comme a la maison,https://www.tripadvisor.in//Restaurant_Review-g196537-d12956316-Reviews-Comme_A_La_Maison-Vannes_Morbihan_Brittany.html,"6 Place du General de Gaulle, 56000, Vannes France",+33 2 97 54 16 64, Closed now: ,127,5.0,5.0,5.0,5.0,4.5,,,"French, Healthy",Vegan Options,12.0,30.0,Aucune distinction,47.6586142,-2.7542781,2
le moi de mets,https://www.tripadvisor.in//Restaurant_Review-g196537-d17539847-Reviews-Le_Moi_de_Mets-Vannes_Morbihan_Brittany.html,"19 Place Maurice Marchais, 56000, Vannes France",+33 2 97 47 17 29, Closed now: ,189,5.0,5.0,5.0,4.5,4.5,"Lunch, Dinner",,"French, European, Healthy",,15.0,37.0,Aucune distinction,47.6580487,-2.760928,3
bvan,https://www.tripadvisor.in//Restaurant_Review-g196537-d24888111-Reviews-Bvan-Vannes_Morbihan_Brittany.html,,,,0,,,,,,,,,,,,Guide michelin,46.3144754,11.0480288,4
le thika,https://www.tripadvisor.in//Restaurant_Review-g196537-d10230854-Reviews-Le_Thika-Vannes_Morbihan_Brittany.html,"11 bis Rue Thomas de Closmadeuc, 56000, Vannes France",+33 2 97 69 67 54, Open now: ,465,5.0,4.5,5.0,4.5,,,,"French, Fast food, European, Eastern European, Street Food",Vegetarian Friendly,8.0,14.0,Aucune distinction,,,5
la tete en l'air,https://www.tripadvisor.in//Restaurant_Review-g196537-d8046689-Reviews-La_Tete_En_L_air-Vannes_Morbihan_Brittany.html,"43 rue de la Fontaine, 56000, Vannes France",+33 2 97 67 31 13, Closed now: ,765,5.0,5.0,4.5,4.5,5.0,,,"French, European, Contemporary","Vegetarian Friendly, Vegan Options, Gluten Free Options",45.0,105.0,1 star,47.6604454,-2.7545568,6
le sous-sol,https://www.tripadvisor.in//Restaurant_Review-g196537-d14019755-Reviews-Le_sous_sol-Vannes_Morbihan_Brittany.html,"15 Place Maurice Marchais, 56000, Vannes France",+33 2 97 47 69 82, Closed now: ,232,5.0,5.0,5.0,4.5,5.0,"Lunch, Dinner, Drinks",,"French, Healthy",,11.0,40.0,bib,47.6580517,-2.7607749,7
basilic & co vannes,https://www.tripadvisor.in//Restaurant_Review-g196537-d13961876-Reviews-Basilic_Co_Vannes-Vannes_Morbihan_Brittany.html,"27 rue Joseph le Brix, 56000, Vannes France",+33 2 97 47 31 34, Closed now: ,611,5.0,4.5,4.5,4.5,,,,"Pizza, European","Vegetarian Friendly, Vegan Options",9.0,15.0,Aucune distinction,47.6862222,-2.7380421,8
la gourmandiere,https://www.tripadvisor.in//Restaurant_Review-g196537-d1331669-Reviews-La_Gourmandiere-Vannes_Morbihan_Brittany.html,"Rue du Poignant, 56000, Vannes France",+33 2 97 47 16 13, Open now: ,563,4.5,4.5,4.5,4.5,4.0,"Lunch, Dinner",,"French, European",,55.0,75.0,1 star,,,9
la creperie sarra'zen,https://www.tripadvisor.in//Restaurant_Review-g196537-d8440918-Reviews-La_Creperie_Sarra_Zen-Vannes_Morbihan_Brittany.html,"21 rue Noe Place du Poids Public, 56000, Vannes France",+33 2 97 68 11 16, Closed now: ,260,5.0,4.5,4.5,4.5,4.5,,,"French, European","Vegetarian Friendly, Vegan Options",10.0,20.0,Aucune distinction,,,10
la source,https://www.tripadvisor.in//Restaurant_Review-g196537-d1331672-Reviews-La_Source-Vannes_Morbihan_Brittany.html,,,,0,,,,,,,,,,,,Aucune distinction,46.3144754,11.0480288,11
afghan cafe,https://www.tripadvisor.in//Restaurant_Review-g196537-d967563-Reviews-Afghan_Cafe-Vannes_Morbihan_Brittany.html,"12 rue de la Fontaine, 56000, Vannes France",+33 2 97 42 77 77, Closed now: ,485,4.5,4.5,4.5,4.5,4.0,,,"Middle Eastern, Afghan","Vegetarian Friendly, Vegan Options",20.0,28.0,Aucune distinction,47.6834649,-2.7358104,12
le temps d'une crepe,https://www.tripadvisor.in//Restaurant_Review-g1158736-d5598289-Reviews-Le_temps_d_une_Crepe-Ploeren_Vannes_Morbihan_Brittany.html,"9 Lieu Dit Belean, 56880 Ploeren, Vannes France",+33 2 97 46 02 71, Closed now: ,538,4.5,4.5,4.5,4.5,4.5,,,"French, European","Vegetarian Friendly, Vegan Options",6.0,25.0,Aucune distinction,47.669549,-2.8230354,13
la table kopins kopines,https://www.tripadvisor.in//Restaurant_Review-g196537-d21231165-Reviews-La_Table_Kopins_Kopines-Vannes_Morbihan_Brittany.html,"13 Place Maurice Marchais, 56000, Vannes France",+33 2 97 47 69 91, Closed now: ,184,4.5,4.5,4.5,4.0,4.0,"Lunch, Dinner",,"Italian, French, Healthy",,8.0,21.0,Aucune distinction,47.6580483,-2.7607037,14
bibo vino,https://www.tripadvisor.in//Restaurant_Review-g196537-d10733703-Reviews-Bibo_Vino-Vannes_Morbihan_Brittany.html,,,,0,,,,,,,,,,,,Aucune distinction,46.3144754,11.0480288,15
le roscanvec restaurant & chambres,https://www.tripadvisor.in//Restaurant_Review-g196537-d807168-Reviews-Le_Roscanvec_Restaurant_Chambres-Vannes_Morbihan_Brittany.html,"19 rue des Halles, 56000, Vannes France",+33 2 97 47 15 96, Closed now: ,788,4.5,4.5,4.5,4.0,4.0,,,"French, European","Vegetarian Friendly, Gluten Free Options",40.0,110.0,Guide michelin,47.6572803,-2.7579034,16
empreinte,https://www.tripadvisor.in//Restaurant_Review-g196537-d16708031-Reviews-Empreinte-Vannes_Morbihan_Brittany.html,"Place Valencia, 56000, Vannes France",+33 2 97 46 06 42, Closed now: ,125,5.0,5.0,5.0,5.0,,"Lunch, Dinner","Reservations, Seating, Serves Alcohol, Table Service","French, Healthy",,,,Guide michelin,47.6567923,-2.7576261,17
creperie saint-guenhael,https://www.tripadvisor.in//Restaurant_Review-g196537-d2262415-Reviews-Creperie_Saint_Guenhael-Vannes_Morbihan_Brittany.html,"23 rue Saint-Guenhael, 56000, Vannes France",+33 2 97 47 47 94, Closed now: ,348,4.5,4.5,4.5,4.5,4.5,"Lunch, Dinner",,"French, European","Vegetarian Friendly, Vegan Options",,,Aucune distinction,47.6576358,-2.7568278,18
le vent d'est,https://www.tripadvisor.in//Restaurant_Review-g196537-d2508256-Reviews-Le_Vent_d_Est-Vannes_Morbihan_Brittany.html,"21 rue Ferdinand le Dressay, 56000, Vannes France",+33 2 97 01 34 53, Closed now: ,475,4.5,4.5,4.5,4.5,4.5,"Lunch, Dinner, After-hours",,"French, European",Vegetarian Friendly,,,Aucune distinction,47.652996,-2.757459,19
chez la mere 6 sous,https://www.tripadvisor.in//Restaurant_Review-g196537-d3680556-Reviews-Chez_la_Mere_6_Sous-Vannes_Morbihan_Brittany.html,"11 rue Thomas de Closmadeuc, 56000, Vannes France",+33 2 97 01 93 67, Closed now: ,1043,4.5,4.5,4.5,4.5,5.0,"Lunch, Dinner, Drinks","Reservations, Seating, Wheelchair Accessible, Serves Alcohol, Wine and Beer, Accepts Mastercard, Accepts Visa, Accepts Credit Cards, Table Service","French, Healthy",,,,Aucune distinction,47.6574553,-2.7592489,20
rive gauche,https://www.tripadvisor.in//Restaurant_Review-g196537-d1045278-Reviews-Rive_Gauche-Vannes_Morbihan_Brittany.html,"5 Place Gambetta, 56000, Vannes France",+33 2 97 47 02 40, Closed now: ,535,4.5,4.5,4.5,4.0,4.0,"Lunch, Dinner, After-hours",,"French, European",,14.0,42.0,Aucune distinction,47.6540911,-2.7576692,21
le homard frites vannes,https://www.tripadvisor.in//Restaurant_Review-g196537-d7381545-Reviews-Le_Homard_Frites_Vannes-Vannes_Morbihan_Brittany.html,"5 Place de Stalingrad, 56000, Vannes France",+33 6 60 21 65 28, Closed now: ,838,4.5,4.5,4.5,4.5,4.5,"Lunch, Dinner, Drinks",,"French, Seafood, European, Healthy",,20.0,70.0,Aucune distinction,,,22
l'eden,https://www.tripadvisor.in//Restaurant_Review-g196537-d1331884-Reviews-L_Eden-Vannes_Morbihan_Brittany.html,"3 rue Pasteur, 56000, Vannes France",+33 2 97 46 42 62, Open now: ,531,4.5,4.5,4.5,4.5,4.0,,,"French, Healthy, Gastropub, Dining bars",Vegetarian Friendly,14.0,32.0,Aucune distinction,47.6552619,-2.7622141,23
le tandem,https://www.tripadvisor.in//Restaurant_Review-g196537-d8631426-Reviews-Le_Tandem-Vannes_Morbihan_Brittany.html,,,,0,,,,,,,,,,,,Aucune distinction,46.3144754,11.0480288,24
l'annexe,https://www.tripadvisor.in//Restaurant_Review-g196537-d2666388-Reviews-L_Annexe-Vannes_Morbihan_Brittany.html,"18 rue Emile Burgault, 56000, Vannes France",+33 2 97 42 58 85, Closed now: ,578,4.5,4.5,4.0,4.0,4.0,,,"French, Contemporary","Vegetarian Friendly, Vegan Options",19.0,65.0,Guide michelin,47.6585109,-2.7591202,25
le coq a l'ane,https://www.tripadvisor.in//Restaurant_Review-g196537-d4379381-Reviews-Le_Coq_a_L_Ane-Vannes_Morbihan_Brittany.html,"17 Place du General de Gaulle, 56000, Vannes France",+33 2 90 99 29 38, Closed now: ,345,4.5,4.5,4.5,4.5,4.5,"Lunch, Dinner",,"French, European","Vegetarian Friendly, Vegan Options, Gluten Free Options",,,Aucune distinction,47.6586029,-2.7534281,26
iode,https://www.tripadvisor.in//Restaurant_Review-g196537-d20133914-Reviews-Iode-Vannes_Morbihan_Brittany.html,"9 rue Aristide Briand, 56000, Vannes France",+33 2 97 47 76 14, Closed now: ,117,5.0,4.5,4.5,4.5,,"Lunch, Dinner",,"French, Healthy",,29.0,85.0,Guide michelin,47.65819,-2.7484762,27
a l'image sainte-anne,https://www.tripadvisor.in//Restaurant_Review-g196537-d4088209-Reviews-A_L_Image_Sainte_Anne-Vannes_Morbihan_Brittany.html,"8 Place de la Liberation, 56000, Vannes France",+33 2 97 63 27 36, Closed now: ,336,4.5,4.5,4.5,4.5,4.0,"Breakfast, Lunch, Dinner, Drinks",,"French, European, Gastropub",,17.0,37.0,Aucune distinction,47.6592421,-2.7645227,28
sushiya,https://www.tripadvisor.in//Restaurant_Review-g196537-d3456724-Reviews-Sushiya-Vannes_Morbihan_Brittany.html,"13 rue Thomas de Closmadeuc, 56000, Vannes France",+33 9 83 29 03 15, Closed now: ,760,4.5,4.5,4.5,4.0,4.0,,,"Japanese, Sushi, Asian","Vegetarian Friendly, Vegan Options, Gluten Free Options",13.0,24.0,Aucune distinction,47.6575986,-2.7595753,29
creperie du port,https://www.tripadvisor.in//Restaurant_Review-g196537-d2320451-Reviews-Creperie_du_port-Vannes_Morbihan_Brittany.html,"32 rue du Port, 56000, Vannes France",+33 2 97 43 40 57, Closed now: ,752,4.5,4.0,4.0,4.0,4.0,,,French,"Vegetarian Friendly, Vegan Options",15.0,29.0,Aucune distinction,47.6528473,-2.7593394,30
creperie billig breizh,https://www.tripadvisor.in//Restaurant_Review-g196537-d5541881-Reviews-Creperie_Billig_Breizh-Vannes_Morbihan_Brittany.html,"4 Place Theodore Decker, 56000, Vannes France",0033297636553, Closed now: ,755,4.5,4.5,4.5,4.5,4.0,"Lunch, Dinner",,"French, European, Healthy",Vegetarian Friendly,,,Aucune distinction,47.6525403,-2.7593318,31
la p'tite souris,https://www.tripadvisor.in//Restaurant_Review-g196537-d3359921-Reviews-La_P_tite_Souris-Vannes_Morbihan_Brittany.html,"36 rue du Port, 56000, Vannes France",+33 2 97 47 15 90, Closed now: ,1115,4.5,4.5,4.5,4.5,4.0,"Lunch, Dinner",,"French, European, Healthy",Vegetarian Friendly,,,Aucune distinction,47.65262,-2.7592554,32
fabbrica pizza,https://www.tripadvisor.in//Restaurant_Review-g196537-d10263220-Reviews-Fabbrica_Pizza-Vannes_Morbihan_Brittany.html,"5 rue Winston Churchill, 56000, Vannes France",+33 2 97 53 12 69, Closed now: ,202,5.0,5.0,4.5,5.0,,,,"Italian, Pizza",Vegetarian Friendly,6.0,15.0,Aucune distinction,47.6485871,-2.7701638,33
derriere,https://www.tripadvisor.in//Restaurant_Review-g196537-d9867333-Reviews-Derriere-Vannes_Morbihan_Brittany.html,,,,0,,,,,,,,,,,,Aucune distinction,46.3144754,11.0480288,34
dan ewen,https://www.tripadvisor.in//Restaurant_Review-g196537-d967566-Reviews-Dan_Ewen-Vannes_Morbihan_Brittany.html,"3 Place du General de Gaulle Quartier Saint Patern, 56000, Vannes France",+33 2 97 42 44 34, Closed now: ,901,4.5,4.5,4.0,4.5,4.0,,,"French, Healthy","Vegetarian Friendly, Gluten Free Options",7.0,20.0,Aucune distinction,,,35
le comptoir du port,https://www.tripadvisor.in//Restaurant_Review-g196537-d2231894-Reviews-Le_Comptoir_du_Port-Vannes_Morbihan_Brittany.html,"8 rue du Port, 56000, Vannes France",+33 2 97 47 93 38, Open now: ,479,4.5,4.5,4.5,4.5,4.5,,,"French, European",Vegetarian Friendly,8.0,15.0,Aucune distinction,47.6536165,-2.7595751,36
daily gourmand,https://www.tripadvisor.in//Restaurant_Review-g196537-d6690601-Reviews-Daily_Gourmand-Vannes_Morbihan_Brittany.html,,,,0,,,,,,,,,,,,Aucune distinction,46.3144754,11.0480288,37
piano barge,https://www.tripadvisor.in//Restaurant_Review-g196537-d4827408-Reviews-Piano_Barge-Vannes_Morbihan_Brittany.html,,,,0,,,,,,,,,,,,Aucune distinction,46.3144754,11.0480288,38
les oliviers,https://www.tripadvisor.in//Restaurant_Review-g196537-d3350638-Reviews-Les_Oliviers-Vannes_Morbihan_Brittany.html,"60 avenue de Verdun, 56000, Vannes France",+33 2 97 54 64 99, Closed now: ,131,4.5,4.5,4.5,4.5,4.0,"Lunch, Dinner",,French,,22.0,30.0,Aucune distinction,47.6617665,-2.7406691,39
balade en crepanie,https://www.tripadvisor.in//Restaurant_Review-g196537-d1487977-Reviews-Balade_en_Crepanie-Vannes_Morbihan_Brittany.html,,,,0,,,,,,,,,,,,Aucune distinction,46.3144754,11.0480288,40
la table de jeanne,https://www.tripadvisor.in//Restaurant_Review-g196537-d967569-Reviews-La_Table_de_Jeanne-Vannes_Morbihan_Brittany.html,,,,0,,,,,,,,,,,,Aucune distinction,46.3144754,11.0480288,41
signe lecocq,https://www.tripadvisor.in//Restaurant_Review-g196537-d7289242-Reviews-Signe_Lecocq-Vannes_Morbihan_Brittany.html,"5 rue Saint Vincent, 56000, Vannes France",+33 2 97 54 19 17, Closed now: ,676,4.0,4.5,4.0,4.0,4.0,"Lunch, Dinner",,"Healthy, Gastropub","Vegetarian Friendly, Vegan Options",,,Aucune distinction,47.7639329,-2.1325602,42
atypic,https://www.tripadvisor.in//Restaurant_Review-g196537-d21141620-Reviews-Atypic-Vannes_Morbihan_Brittany.html,"15 Bis, Rue Noe, 56000, Vannes France",+33 2 97 47 82 19, Closed now: ,98,4.5,4.5,4.5,4.5,,"Lunch, Dinner","Reservations, Seating, Serves Alcohol, Table Service","French, Healthy",,,,Aucune distinction,47.6565747,-2.7578883,43
au pont vert,https://www.tripadvisor.in//Restaurant_Review-g196537-d2480086-Reviews-Au_Pont_Vert-Vannes_Morbihan_Brittany.html,"40 av du Mal de Lattre de Tassigny, 56000, Vannes France",+33 2 97 40 80 13, Closed now: ,190,4.5,4.5,4.5,4.5,4.0,"Lunch, Dinner",,French,,15.0,23.0,Aucune distinction,47.643025,-2.7609034,44
cosy,https://www.tripadvisor.in//Restaurant_Review-g196537-d4044088-Reviews-Cosy-Vannes_Morbihan_Brittany.html,"2 Place Maurice Marchais, 56000, Vannes France",+33 2 97 47 63 93, Closed now: ,412,4.0,4.0,4.0,4.0,4.0,"Lunch, Dinner, After-hours",,"Italian, French, European","Vegetarian Friendly, Vegan Options",,,Aucune distinction,47.6583465,-2.760365512085075,45
ryoko - comptoir a ramen,https://www.tripadvisor.in//Restaurant_Review-g196537-d23197770-Reviews-Ryoko_Comptoir_A_Ramen-Vannes_Morbihan_Brittany.html,,,,0,,,,,,,,,,,,Guide michelin,46.3144754,11.0480288,46
les 3 singes,https://www.tripadvisor.in//Restaurant_Review-g196537-d17389197-Reviews-Les_3_singes-Vannes_Morbihan_Brittany.html,"4 Place Bir Hakeim, 56000, Vannes France",+33 2 56 63 61 23, Closed now: ,83,5.0,4.5,4.5,4.0,,"Lunch, Dinner","Reservations, Seating, Serves Alcohol, Table Service","French, Healthy",,,,Aucune distinction,47.6584738,-2.7489883,47
chez mone,https://www.tripadvisor.in//Restaurant_Review-g196537-d6857596-Reviews-Chez_Mone-Vannes_Morbihan_Brittany.html,"30 rue Thiers, 56000, Vannes France",+33 2 97 54 32 06,,172,4.5,4.5,4.5,4.0,4.5,"Lunch, Dinner",,"Asian, Thai, Vietnamese",Vegetarian Friendly,,,Aucune distinction,47.6574927,-2.7596489,48
creperie la taupiniere,https://www.tripadvisor.in//Restaurant_Review-g196537-d1331673-Reviews-Creperie_La_Taupiniere-Vannes_Morbihan_Brittany.html,"9 Place des Lices, 56000, Vannes France",+33 2 97 42 57 82,,217,4.5,4.5,4.5,4.5,4.0,"Lunch, Dinner",,French,Vegetarian Friendly,,,Aucune distinction,47.6559268,-2.7575999,49
la nonna lilia,https://www.tripadvisor.in//Restaurant_Review-g196537-d12859315-Reviews-La_Nonna_Lilia-Vannes_Morbihan_Brittany.html,"11 rue Thomas de Closmadeuc, 56000, Vannes France",+33 9 86 65 59 80, Closed now: ,208,4.5,4.5,4.5,4.0,,"Lunch, Dinner",,"Italian, Pizza, Tuscan, Romana, Lazio, Central-Italian","Vegetarian Friendly, Vegan Options",,,Aucune distinction,47.6574553,-2.7592489,50
le petit refuge,https://www.tripadvisor.in//Restaurant_Review-g196537-d4451937-Reviews-Le_Petit_Refuge-Vannes_Morbihan_Brittany.html,"2 rue Thomas de Closmadeuc, 56000, Vannes France",+33 9 67 02 71 38, Closed now: ,190,4.5,4.5,4.5,4.5,4.5,,,"French, Healthy, European",Vegetarian Friendly,9.0,13.0,Aucune distinction,47.6574327,-2.758968,51
le bagel ouest,https://www.tripadvisor.in//Restaurant_Review-g196537-d7356125-Reviews-Le_Bagel_Ouest-Vannes_Morbihan_Brittany.html,,,,0,,,,,,,,,,,,Aucune distinction,46.3144754,11.0480288,52
saveurs de l'inde,https://www.tripadvisor.in//Restaurant_Review-g196537-d8452355-Reviews-Saveurs_de_l_Inde-Vannes_Morbihan_Brittany.html,,,,0,,,,,,,,,,,,Aucune distinction,46.3144754,11.0480288,53
le p'tit belon,https://www.tripadvisor.in//Restaurant_Review-g196537-d8575140-Reviews-Le_P_tit_Belon-Vannes_Morbihan_Brittany.html,"3 Place de la Poissonnerie, 56000, Vannes France",+33 2 97 43 24 16, Closed now: ,238,4.5,4.5,4.5,4.5,,"Lunch, Dinner",,French,,7.0,30.0,Aucune distinction,47.6552587,-2.7582171,54
l'entrechoc,https://www.tripadvisor.in//Restaurant_Review-g196537-d5889240-Reviews-L_EntreChoc-Vannes_Morbihan_Brittany.html,"3 rue Saint Guenhael, 56000, Vannes France",+33 9 50 66 93 95, Closed now: ,212,4.5,4.5,4.5,4.5,4.5,"Lunch, Brunch, Drinks",,"French, European","Vegetarian Friendly, Vegan Options, Gluten Free Options",,,Aucune distinction,47.6581941,-2.7558066,55
l'antre de nous,https://www.tripadvisor.in//Restaurant_Review-g1158736-d16785766-Reviews-L_Antre_de_Nous-Ploeren_Vannes_Morbihan_Brittany.html,"7 avenue Eric Tabarly, 56880 Ploeren, Vannes France",+33 2 97 69 37 18, Closed now: ,76,5.0,5.0,5.0,5.0,,"Lunch, Dinner",,French,,13.0,27.0,Aucune distinction,47.6552369,-2.8734588,56
l'accord gourmet,https://www.tripadvisor.in//Restaurant_Review-g196537-d12391074-Reviews-L_Accord_Gourmet-Vannes_Morbihan_Brittany.html,"17 rue Hoche, 56000, Vannes France",+33 9 81 62 34 20, Closed now: ,88,4.5,5.0,5.0,4.5,,,,"French, European, Gastropub","Vegetarian Friendly, Vegan Options, Gluten Free Options",15.0,25.0,Aucune distinction,47.641583,-2.951182335777126,57
le rozili,https://www.tripadvisor.in//Restaurant_Review-g196537-d4814746-Reviews-Le_Rozili-Vannes_Morbihan_Brittany.html,,,,0,,,,,,,,,,,,Aucune distinction,46.3144754,11.0480288,58
creperie au vieux vannes,https://www.tripadvisor.in//Restaurant_Review-g196537-d4427916-Reviews-Creperie_Au_Vieux_Vannes-Vannes_Morbihan_Brittany.html,"17 rue Emile Burgault, 56000, Vannes France",+33 2 97 47 12 62, Closed now: ,456,4.0,4.0,4.0,4.0,4.0,"Lunch, Dinner",,"French, Healthy",Vegetarian Friendly,,,Aucune distinction,47.6583223,-2.7588181,59
creperie st vincent,https://www.tripadvisor.in//Restaurant_Review-g196537-d2256571-Reviews-Creperie_St_Vincent-Vannes_Morbihan_Brittany.html,,,,0,,,,,,,,,,,,Aucune distinction,46.3144754,11.0480288,60
le district,https://www.tripadvisor.in//Restaurant_Review-g196537-d13834713-Reviews-Le_District-Vannes_Morbihan_Brittany.html,"13 rue Thomas de Closmadeuc, 56000, Vannes France",+33 2 97 41 93 05, Closed now: ,55,5.0,5.0,5.0,5.0,,,,"French, American",Vegetarian Friendly,9.0,20.0,Aucune distinction,47.6575986,-2.7595753,61
la brasserie bleue,https://www.tripadvisor.in//Restaurant_Review-g196537-d1868348-Reviews-La_Brasserie_Bleue-Vannes_Morbihan_Brittany.html,,,,0,,,,,,,,,,,,Aucune distinction,46.3144754,11.0480288,62
creperie brasserie le moulin du roy,https://www.tripadvisor.in//Restaurant_Review-g196537-d6922826-Reviews-Creperie_Brasserie_Le_Moulin_du_Roy-Vannes_Morbihan_Brittany.html,"14 Place Gambetta, 56000, Vannes France",+33 2 97 61 52 78, Closed now: ,570,4.0,4.0,4.0,4.0,4.0,"Lunch, Dinner",,"French, European",Vegetarian Friendly,,,Aucune distinction,47.6539048,-2.7593075,63
chez marcelle,https://www.tripadvisor.in//Restaurant_Review-g196537-d21118834-Reviews-Chez_Marcelle-Vannes_Morbihan_Brittany.html,"13 rue Saint Guenhael, 56000, Vannes France",+33 2 97 49 70 95, Closed now: ,62,4.5,5.0,5.0,4.5,,"Lunch, Dinner, After-hours, Drinks",,"French, Healthy",,6.0,32.0,Aucune distinction,47.6578089,-2.7565791,64
restaurant indien l’indus,https://www.tripadvisor.in//Restaurant_Review-g196537-d19911488-Reviews-Restaurant_Indien_L_Indus-Vannes_Morbihan_Brittany.html,"49 rue de la Fontaine, 56000, Vannes France",+33 2 97 47 67 86, Closed now: ,66,4.5,4.5,4.0,4.0,,"Lunch, Dinner",,"Indian, Pakistani, Healthy",,11.0,32.0,Aucune distinction,47.6598156,-2.7546413,65
karpa,https://www.tripadvisor.in//Restaurant_Review-g196537-d3537275-Reviews-Karpa-Vannes_Morbihan_Brittany.html,"28 rue du Port, 56000, Vannes France",+33 2 97 47 48 34, Closed now: ,623,4.0,4.0,4.0,4.0,4.0,"Lunch, Dinner, After-hours",,"Italian, French, European",Vegetarian Friendly,,,Aucune distinction,47.6529308,-2.7593918,66
delice cafe vannes,https://www.tripadvisor.in//Restaurant_Review-g196537-d3977871-Reviews-Delice_Cafe_Vannes-Vannes_Morbihan_Brittany.html,"7 Place des Lices, 56000, Vannes France",+33 2 97 54 23 31, Open now: ,189,4.0,4.0,4.5,4.0,4.0,"Breakfast, Lunch, Drinks","Reservations, Outdoor Seating, Seating, Wheelchair Accessible, Serves Alcohol, Table Service","French, Cafe, European",,,,Aucune distinction,47.6559029,-2.7574844,67
don camillo,https://www.tripadvisor.in//Restaurant_Review-g196537-d3531484-Reviews-Don_Camillo-Vannes_Morbihan_Brittany.html,"20 rue du Port, 56000, Vannes France",+33 2 97 54 04 38, Closed now: ,252,4.0,4.0,4.0,4.0,4.0,"Lunch, Dinner, After-hours",,"Italian, Pizza","Vegetarian Friendly, Vegan Options",,,Aucune distinction,47.6532193,-2.7595109,68
le cafe des orfevres,https://www.tripadvisor.in//Restaurant_Review-g196537-d14215556-Reviews-Le_Cafe_des_Orfevres-Vannes_Morbihan_Brittany.html,"18 rue des Vierges, 56000, Vannes France",+33 2 57 96 02 55, Closed now: ,60,4.5,4.0,4.5,4.0,,"Breakfast, Lunch, Brunch, Drinks",,"Cafe, French, European, Healthy","Vegetarian Friendly, Vegan Options",,,Aucune distinction,47.657359,-2.7562867,69
sushi pearl,https://www.tripadvisor.in//Restaurant_Review-g196537-d8540314-Reviews-Sushi_Pearl-Vannes_Morbihan_Brittany.html,"7 rue Alain le grand Quartier Saint Patern, 56000, Vannes France",+33 2 97 54 35 96, Closed now: ,128,4.0,4.5,4.0,4.0,,,,"Japanese, Sushi, Asian","Vegetarian Friendly, Vegan Options",14.0,35.0,Aucune distinction,,,70
pizzeria villa romana,https://www.tripadvisor.in//Restaurant_Review-g196537-d2249243-Reviews-Pizzeria_Villa_Romana-Vannes_Morbihan_Brittany.html,,,,0,,,,,,,,,,,,Aucune distinction,46.3144754,11.0480288,71
1930 conleau,https://www.tripadvisor.in//Restaurant_Review-g196537-d20990029-Reviews-1930_Conleau-Vannes_Morbihan_Brittany.html,"3 allee des Freres Cadoret, 56000, Vannes France",+33 2 97 26 25 68, Closed now: ,151,4.0,4.5,4.5,4.0,,"Lunch, Dinner, After-hours, Drinks",,"Seafood, Dining bars, Bar, Healthy, French",,12.0,30.0,Aucune distinction,47.6278322,-2.7771153,72
l'atlantique,https://www.tripadvisor.in//Restaurant_Review-g196537-d886887-Reviews-L_Atlantique-Vannes_Morbihan_Brittany.html,,,,0,,,,,,,,,,,,Aucune distinction,46.3144754,11.0480288,73
la porte de l'inde,https://www.tripadvisor.in//Restaurant_Review-g196537-d3605611-Reviews-La_Porte_de_l_Inde-Vannes_Morbihan_Brittany.html,"51 rue du Marechal Leclerc, 56000, Vannes France",+33 2 97 63 88 04,,128,4.0,4.0,4.0,4.0,3.5,"Lunch, Dinner",,Indian,"Vegetarian Friendly, Vegan Options",,,Aucune distinction,47.5520467,-2.4818212,74
kergalette,https://www.tripadvisor.in//Restaurant_Review-g196537-d4240834-Reviews-Kergalette-Vannes_Morbihan_Brittany.html,"10 rue Jacques Rueff, 56000, Vannes France",+33 2 97 46 27 12, Open now: ,304,3.5,3.5,4.0,3.5,3.5,"Lunch, Dinner",,French,Vegetarian Friendly,,,Aucune distinction,47.666991,-2.7917418,75
bar l ocean,https://www.tripadvisor.in//Restaurant_Review-g196537-d2351069-Reviews-Bar_l_Ocean-Vannes_Morbihan_Brittany.html,"4 Place Gambetta, 56000, Vannes France",+33 2 97 47 00 10, Open now: ,468,3.5,4.0,4.0,4.0,4.0,"Lunch, Dinner, After-hours",,"French, International, Contemporary, Dining bars",,8.0,17.0,Aucune distinction,47.654368,-2.758364,76
chez woody,https://www.tripadvisor.in//Restaurant_Review-g196537-d17521172-Reviews-Chez_Woody-Vannes_Morbihan_Brittany.html,,,,0,,,,,,,,,,,,Aucune distinction,46.3144754,11.0480288,77
aigle celeste,https://www.tripadvisor.in//Restaurant_Review-g196537-d12322514-Reviews-Aigle_Celeste-Vannes_Morbihan_Brittany.html,"30 rue Gay Lussac, 56000, Vannes France",+33 2 97 67 88 88, Closed now: ,260,4.0,4.0,4.0,4.0,,"Lunch, Dinner",,"Chinese, Japanese, Asian, Thai",Vegetarian Friendly,,,Aucune distinction,47.6676461,-2.787585799703269,78
l'hortensia,https://www.tripadvisor.in//Restaurant_Review-g196537-d3751721-Reviews-L_Hortensia-Vannes_Morbihan_Brittany.html,"18 Rue Sainte Brigitte Noyalo, 56450, Vannes France",+33 2 97 43 02 00,,116,4.5,4.5,4.5,4.0,4.0,"Lunch, Dinner","Takeout, Reservations, Seating, Wheelchair Accessible, Table Service, Outdoor Seating, Private Dining, Serves Alcohol",French,,,,Aucune distinction,47.6111207,-2.6827436,79
les petites bretonnes,https://www.tripadvisor.in//Restaurant_Review-g196537-d10955592-Reviews-Les_Petites_Bretonnes-Vannes_Morbihan_Brittany.html,"8 rue Thomas de Closmadeuc, 56000, Vannes France",+33 2 97 54 10 50, Closed now: ,189,4.0,4.0,4.0,4.0,,,,French,Vegetarian Friendly,6.0,15.0,Aucune distinction,47.6576355,-2.7594248,80
le bistrot de jeanne,https://www.tripadvisor.in//Restaurant_Review-g196537-d13387803-Reviews-Le_Bistrot_de_Jeanne-Vannes_Morbihan_Brittany.html,"17 Place du Poids Public, 56000, Vannes France",+33 2 97 43 88 82, Closed now: ,269,4.0,4.0,4.0,3.5,,"Lunch, Dinner","Reservations, Seating, Wheelchair Accessible, Serves Alcohol, Full Bar, Accepts Credit Cards, Table Service","French, Bar, Cafe, European, Diner",,,,Aucune distinction,47.6557471,-2.7577557,81
in bovino veritas,https://www.tripadvisor.in//Restaurant_Review-g196537-d26251362-Reviews-In_Bovino_Veritas-Vannes_Morbihan_Brittany.html,,,,0,,,,,,,,,,,,Aucune distinction,46.3144754,11.0480288,82
l'escale,https://www.tripadvisor.in//Restaurant_Review-g196537-d13447149-Reviews-L_Escale-Vannes_Morbihan_Brittany.html,"6 Place Gambetta, 56000, Vannes France",+33 9 67 49 82 08, Open now: ,186,4.0,4.0,4.0,4.0,,"Lunch, Drinks",,"Cafe, Wine Bar, Gastropub, French, Fast food",,12.0,20.0,Aucune distinction,47.6543224,-2.7584079,83
villa valencia,https://www.tripadvisor.in//Restaurant_Review-g196537-d1021923-Reviews-Villa_Valencia-Vannes_Morbihan_Brittany.html,"3 rue Bienheureux P Rene Rogue, 56000, Vannes France",+33 2 97 54 96 54, Closed now: ,711,3.5,3.5,3.5,3.5,3.5,,,"Italian, French, European",Vegetarian Friendly,15.0,22.0,Aucune distinction,,,84
restaurant le roof,https://www.tripadvisor.in//Restaurant_Review-g196537-d4341353-Reviews-Restaurant_Le_Roof-Vannes_Morbihan_Brittany.html,"10 allee des Freres Cadoret Presqu'île de Conleau, 56000, Vannes France",+33 2 97 63 47 47, Closed now: ,378,3.5,3.5,4.0,3.5,3.5,"Drinks, Breakfast, Lunch, Dinner","Reservations, Outdoor Seating, Seating, Parking Available, Validated Parking, Highchairs Available, Wheelchair Accessible, Serves Alcohol, Full Bar, Free Wifi, Accepts Credit Cards, Table Service, Private Dining","French, European",,,,Aucune distinction,,,85
oscar lunch diner,https://www.tripadvisor.in//Restaurant_Review-g196537-d4411766-Reviews-Oscar_Lunch_Diner-Vannes_Morbihan_Brittany.html,"6 rue Gay Lussac, 56000, Vannes France",+33 2 97 46 48 66, Closed now: ,135,4.0,4.0,4.0,4.0,3.5,"Lunch, Dinner, After-hours","Reservations, Seating, Wheelchair Accessible, Serves Alcohol, Accepts Credit Cards, Table Service, Full Bar",French,,,,Aucune distinction,47.6673401,-2.7882384,86
my thailand,https://www.tripadvisor.in//Restaurant_Review-g196537-d16696382-Reviews-My_Thailand-Vannes_Morbihan_Brittany.html,,,,0,,,,,,,,,,,,Aucune distinction,46.3144754,11.0480288,87
le sixtine,https://www.tripadvisor.in//Restaurant_Review-g196537-d14013129-Reviews-Le_Sixtine-Vannes_Morbihan_Brittany.html,"17 rue Saint Guenhael, 56000, Vannes France",+33 2 90 79 09 34,,45,4.5,4.5,5.0,4.5,,"Lunch, Brunch, Breakfast",,French,Vegetarian Friendly,,,Aucune distinction,47.6578089,-2.7565791,88
l'atelier bistrot,https://www.tripadvisor.in//Restaurant_Review-g196537-d21374158-Reviews-L_Atelier_Bistrot-Vannes_Morbihan_Brittany.html,"5 rue de la Monnaie, 56000, Vannes France",+33 2 97 54 31 18, Closed now: ,21,5.0,5.0,5.0,4.5,,"Lunch, Breakfast, Dinner, After-hours, Drinks",,"French, Bar, Cafe, European, Dining bars, Healthy",,10.0,30.0,Aucune distinction,47.6573209,-2.7571404,89
my couscous,https://www.tripadvisor.in//Restaurant_Review-g196537-d22954088-Reviews-My_Couscous-Vannes_Morbihan_Brittany.html,"9 Passage de Fareham, 56000, Vannes France",+33 2 97 26 62 60, Closed now: ,22,5.0,5.0,5.0,5.0,,"Lunch, Dinner, After-hours","Takeout, Reservations, Delivery","Algerian, Moroccan, Mediterranean, Middle Eastern, Tunisian",,,,Aucune distinction,47.6389333,-2.7759021,90
l’ardoise,https://www.tripadvisor.in//Restaurant_Review-g196537-d17780603-Reviews-L_ardoise-Vannes_Morbihan_Brittany.html,"25 B rue du Marechal Leclerc, 56000, Vannes France",+33 9 51 73 27 66, Closed now: ,42,4.5,5.0,4.5,4.5,,"Lunch, Dinner","Reservations, Seating, Serves Alcohol, Table Service","French, Healthy",,,,Aucune distinction,47.5520467,-2.4818212,91
le scoop,https://www.tripadvisor.in//Restaurant_Review-g196537-d1331883-Reviews-Le_Scoop-Vannes_Morbihan_Brittany.html,"60 rue Theophraste Renaudot, 56000, Vannes France",+33 2 97 40 39 77, Closed now: ,77,4.0,4.0,4.5,4.5,,Lunch,"Reservations, Seating, Wheelchair Accessible, Serves Alcohol, Table Service","French, Bar, Pub",,,,Aucune distinction,47.6612182,-2.7900054,92
buns - vannes,https://www.tripadvisor.in//Restaurant_Review-g196537-d25071640-Reviews-Buns_Vannes-Vannes_Morbihan_Brittany.html,,,,0,,,,,,,,,,,,Aucune distinction,46.3144754,11.0480288,93
cinque5se,https://www.tripadvisor.in//Restaurant_Review-g196537-d24104448-Reviews-Cinque5se-Vannes_Morbihan_Brittany.html,,,,0,,,,,,,,,,,,Aucune distinction,46.3144754,11.0480288,94
pizzeria grill capri,https://www.tripadvisor.in//Restaurant_Review-g196537-d4261458-Reviews-Pizzeria_Grill_Capri-Vannes_Morbihan_Brittany.html,"11 Place de la Liberation 56000, 56000, Vannes France",+33 2 97 40 32 33, Closed now: ,81,4.0,4.0,4.0,4.0,3.5,"Lunch, Dinner",,European,Vegetarian Friendly,,,Aucune distinction,47.658105,-2.7642129,95
chez fred,https://www.tripadvisor.in//Restaurant_Review-g196537-d12458087-Reviews-Chez_Fred-Vannes_Morbihan_Brittany.html,"29 Place des Lices, 56000, Vannes France",+33 6 33 34 62 35, Closed now: ,36,4.5,3.5,4.0,3.5,,"After-hours, Drinks, Lunch","Outdoor Seating, Seating, Serves Alcohol, Full Bar, Wine and Beer, Accepts American Express, Accepts Mastercard, Accepts Visa, Digital Payments, Table Service, Highchairs Available","French, Wine Bar, Bar",,,,Aucune distinction,47.6565426,-2.7572271,96
le corlazo,https://www.tripadvisor.in//Restaurant_Review-g196537-d8488838-Reviews-Le_Corlazo-Vannes_Morbihan_Brittany.html,"5 Allee du Dr Francois Salomon 5min From The City Center Close To The Beach And Pool, 56000, Vannes France",+33 2 97 63 24 43, Closed now: ,286,3.5,3.5,3.5,3.5,,"Lunch, Drinks",,French,,13.0,23.0,Aucune distinction,,,97
instinct,https://www.tripadvisor.in//Restaurant_Review-g196537-d25976775-Reviews-InsTinct-Vannes_Morbihan_Brittany.html,"11, Place de la Liberation, 56000, Vannes France",+33 2 97 26 92 40,,37,4.5,4.5,4.5,4.0,4.0,"Lunch, Dinner","Reservations, Table Service, Seating",French,,,,Aucune distinction,47.6590873,-2.7643411,98
au tableau,https://www.tripadvisor.in//Restaurant_Review-g196537-d3916427-Reviews-Au_Tableau-Vannes_Morbihan_Brittany.html,"7 rue Jean Perrin, 56000, Vannes France",+33 2 97 68 18 79, Open now: ,103,4.0,3.5,4.0,4.0,3.0,"Lunch, Dinner","Reservations, Seating, Wheelchair Accessible, Serves Alcohol, Full Bar, Table Service",French,,,,Aucune distinction,47.6433856,-2.7394555,99
les nenettes,https://www.tripadvisor.in//Restaurant_Review-g196537-d10258509-Reviews-Les_Nenettes-Vannes_Morbihan_Brittany.html,"4 Place des Lices Halles Des Lices, 56000, Vannes France",+33 7 87 00 15 17, Closed now: ,30,5.0,5.0,5.0,5.0,,"Breakfast, Lunch, Drinks",Wheelchair Accessible,,,5.0,14.0,Aucune distinction,,,100
cafe de la poissonnerie,https://www.tripadvisor.in//Restaurant_Review-g196537-d4752958-Reviews-Cafe_de_la_Poissonnerie-Vannes_Morbihan_Brittany.html,"21 Place de la Poissonnerie, 56000, Vannes France",+33 2 97 47 15 58, Closed now: ,91,4.0,4.0,3.5,4.5,4.0,"Lunch, Dinner","Outdoor Seating, Seating, Serves Alcohol, Table Service",French,,,,Aucune distinction,47.6552587,-2.7582171,101
saveurs orientales,https://www.tripadvisor.in//Restaurant_Review-g196537-d21196991-Reviews-Saveurs_Orientales-Vannes_Morbihan_Brittany.html,"16 rue Hoche, 56000, Vannes France",+33 9 88 40 00 19,,22,4.5,4.5,4.0,4.5,,"Dinner, Lunch","Reservations, Seating, Table Service","Lebanese, Middle Eastern, Cuban, Healthy, Caribbean, Mediterranean",,,,Aucune distinction,47.641375499999995,-2.9513062619047603,102
dedale rive gauche,https://www.tripadvisor.in//Restaurant_Review-g196537-d15002507-Reviews-DeDaLe_Rive_Gauche-Vannes_Morbihan_Brittany.html,"8 rue du Commerce, 56000, Vannes France",Improve this listing, Closed now: ,34,4.5,,4.5,5.0,,,"Seating, Serves Alcohol","Bar, Cafe",,,,Aucune distinction,47.6509361,-2.7570349,103
bistrot makan,https://www.tripadvisor.in//Restaurant_Review-g196537-d26681184-Reviews-Bistrot_Makan-Vannes_Morbihan_Brittany.html,,,,0,,,,,,,,,,,,Aucune distinction,46.3144754,11.0480288,104
brasserie des halles,https://www.tripadvisor.in//Restaurant_Review-g196537-d1882785-Reviews-Brasserie_des_Halles-Vannes_Morbihan_Brittany.html,"9 rue des Halles, 56000, Vannes France",+33 2 97 54 08 34, Closed now: ,875,3.5,3.5,3.5,3.5,3.5,"Lunch, Dinner, After-hours","Reservations, Outdoor Seating, Seating, Highchairs Available, Serves Alcohol, Accepts Credit Cards, Table Service","French, European",,,,Aucune distinction,47.6569611,-2.7577638,105
brasserie edgar,https://www.tripadvisor.in//Restaurant_Review-g196537-d1208881-Reviews-Brasserie_Edgar-Vannes_Morbihan_Brittany.html,"Parc du Golfe 19 rue Daniel Gilard, 56000, Vannes France",+33 2 97 40 68 08, Closed now: ,315,3.5,3.5,4.0,3.5,3.5,"Lunch, Dinner","Reservations, Outdoor Seating, Seating, Parking Available, Highchairs Available, Wheelchair Accessible, Serves Alcohol, Full Bar, Free Wifi, Table Service","French, Bar, European",,,,Aucune distinction,,,106
l'ottoman,https://www.tripadvisor.in//Restaurant_Review-g196537-d10033352-Reviews-L_ottoman-Vannes_Morbihan_Brittany.html,"61 B rue du Vincin, 56000, Vannes France",+33 2 97 44 84 59,,29,4.5,5.0,5.0,5.0,,"Lunch, Dinner","Takeout, Seating, Wheelchair Accessible, Reservations, Table Service","Fast food, Turkish, Middle Eastern",,,,Aucune distinction,47.6498181,-2.7967588,107
l'oriental,https://www.tripadvisor.in//Restaurant_Review-g196537-d9734315-Reviews-L_Oriental-Vannes_Morbihan_Brittany.html,"60 avenue de Verdun, 56000, Vannes France",+33 9 84 28 75 52, Closed now: ,64,4.0,4.5,4.5,4.5,,,,"Moroccan, Middle Eastern, Mediterranean, Egyptian",Halal,5.0,30.0,Aucune distinction,47.6617665,-2.7406691,108
francois,https://www.tripadvisor.in//Restaurant_Review-g196537-d21140179-Reviews-Francois-Vannes_Morbihan_Brittany.html,"6 Place des Lices, 56000, Vannes France",+33 6 75 77 87 53,,29,4.5,5.0,4.5,4.5,,,,French,,,,Aucune distinction,47.6560166,-2.7569787,109
o' petit gout de,https://www.tripadvisor.in//Restaurant_Review-g196537-d14180831-Reviews-O_Petit_Gout_de-Vannes_Morbihan_Brittany.html,,,,0,,,,,,,,,,,,Aucune distinction,46.3144754,11.0480288,110
le cardinal,https://www.tripadvisor.in//Restaurant_Review-g196537-d23557859-Reviews-Le_Cardinal-Vannes_Morbihan_Brittany.html,,,,0,,,,,,,,,,,,Aucune distinction,46.3144754,11.0480288,111
roadside vannes,https://www.tripadvisor.in//Restaurant_Review-g196537-d17451996-Reviews-Roadside_Vannes-Vannes_Morbihan_Brittany.html,"135 avenue de la Marne, 56000, Vannes France",+33 2 97 41 43 83, Open now: ,65,4.0,3.5,3.5,3.5,,"Lunch, Dinner, Drinks",,"American, Fast food",,5.0,12.0,Aucune distinction,47.660276,-2.7937426,112
les potes au feu,https://www.tripadvisor.in//Restaurant_Review-g196537-d6482181-Reviews-Les_Potes_au_Feu-Vannes_Morbihan_Brittany.html,"7 B rue d Alsace, 56000, Vannes France",+33 9 66 87 15 80, Closed now: ,56,4.5,4.5,4.0,4.0,,,,French,"Vegan Options, Vegetarian Friendly, Gluten Free Options",9.0,18.0,Aucune distinction,47.6458799,-2.7842753,113
le pirenn,https://www.tripadvisor.in//Restaurant_Review-g196537-d5500911-Reviews-LE_PIRENN-Vannes_Morbihan_Brittany.html,,,,0,,,,,,,,,,,,Aucune distinction,46.3144754,11.0480288,114
citron et melon d'eau,https://www.tripadvisor.in//Restaurant_Review-g196537-d21233594-Reviews-Citron_Et_Melon_D_eau-Vannes_Morbihan_Brittany.html,"8 rue Saint Nicolas, 56000, Vannes France",Improve this listing,,23,4.5,5.0,5.0,4.5,,Lunch,"Seating, Table Service, Reservations","French, Contemporary",,,,Aucune distinction,47.6589182,-2.754656,115
be good'n burger,https://www.tripadvisor.in//Restaurant_Review-g196537-d19841429-Reviews-Be_Good_n_Burger-Vannes_Morbihan_Brittany.html,"18 rue Saint Patern, 56000, Vannes France",+33 2 97 47 85 33,,31,,,,,,"Lunch, Dinner, After-hours, Drinks","Reservations, Seating, Table Service",American,,,,Aucune distinction,47.6592918,-2.7535451,116
la saigonnaise,https://www.tripadvisor.in//Restaurant_Review-g196537-d1331671-Reviews-La_Saigonnaise-Vannes_Morbihan_Brittany.html,,,,0,,,,,,,,,,,,Aucune distinction,46.3144754,11.0480288,117
la belle epoque,https://www.tripadvisor.in//Restaurant_Review-g196537-d25045467-Reviews-La_Belle_Epoque-Vannes_Morbihan_Brittany.html,"3 rue Henri Navier Luscanen, 56000, Vannes France",Improve this listing, Open now: ,20,4.5,4.0,4.0,3.5,4.0,"Lunch, Dinner","Reservations, Seating, Accepts Credit Cards, Table Service",French,,,,Aucune distinction,,,118
poissonnerie du port,https://www.tripadvisor.in//Restaurant_Review-g196537-d26305653-Reviews-Poissonnerie_du_port-Vannes_Morbihan_Brittany.html,"10 Rue Carnot, 56000, Vannes France",+33 9 81 25 17 07,,11,5.0,5.0,4.5,5.0,5.0,"Lunch, Dinner, After-hours, Drinks",,"Seafood, Diner",,,,Aucune distinction,47.6543487,-2.7590677,119
l'antidote,https://www.tripadvisor.in//Restaurant_Review-g196537-d23599862-Reviews-L_antidote-Vannes_Morbihan_Brittany.html,,,,0,,,,,,,,,,,,Aucune distinction,46.3144754,11.0480288,120
l'iberico,https://www.tripadvisor.in//Restaurant_Review-g196537-d23486744-Reviews-L_iberico-Vannes_Morbihan_Brittany.html,,,,0,,,,,,,,,,,,Aucune distinction,46.3144754,11.0480288,121
au p'tit marmiton,https://www.tripadvisor.in//Restaurant_Review-g1158736-d12326787-Reviews-Au_P_tit_Marmiton-Ploeren_Vannes_Morbihan_Brittany.html,,,,0,,,,,,,,,,,,Aucune distinction,46.3144754,11.0480288,122
la boucherie,https://www.tripadvisor.in//Restaurant_Review-g196537-d3571094-Reviews-La_Boucherie-Vannes_Morbihan_Brittany.html,"Rue Gay Lussac, 56000, Vannes France",+33 2 97 46 03 04, Closed now: ,331,3.5,3.5,3.5,3.5,3.0,"Lunch, Dinner, After-hours","Reservations, Outdoor Seating, Seating, Parking Available, Validated Parking, Highchairs Available, Wheelchair Accessible, Serves Alcohol, Full Bar, Free Wifi, Accepts Credit Cards, Table Service","French, Steakhouse, Bar, Grill",,,,Aucune distinction,47.6673401,-2.7882384,123
crapule,https://www.tripadvisor.in//Restaurant_Review-g196537-d26250325-Reviews-Crapule-Vannes_Morbihan_Brittany.html,"3, Rue Porte Poterne, 56000, Vannes France",0981472019,,16,4.5,4.5,4.5,4.5,,"Lunch, Dinner, After-hours, Drinks","Reservations, Table Service",French,,,,Aucune distinction,47.6555919,-2.7562222,124
cafe ferdinand,https://www.tripadvisor.in//Restaurant_Review-g196537-d20317060-Reviews-Cafe_Ferdinand-Vannes_Morbihan_Brittany.html,,,,0,,,,,,,,,,,,Aucune distinction,46.3144754,11.0480288,125
kuta,https://www.tripadvisor.in//Restaurant_Review-g196537-d17440890-Reviews-Kuta-Vannes_Morbihan_Brittany.html,,,,0,,,,,,,,,,,,Aucune distinction,46.3144754,11.0480288,126
le cafe de conleau,https://www.tripadvisor.in//Restaurant_Review-g196537-d3534706-Reviews-Le_Cafe_de_Conleau-Vannes_Morbihan_Brittany.html,"10 allee des Freres Cadoret Presqu'ile de Conleau, 56000, Vannes France",+33 2 97 63 47 47, Closed now: ,402,3.5,3.5,3.5,3.5,3.0,"Lunch, Dinner","Reservations, Outdoor Seating, Seating, Parking Available, Validated Parking, Highchairs Available, Wheelchair Accessible, Serves Alcohol, Full Bar, Table Service","French, European",,,,Aucune distinction,,,127
le quatre - le 4,https://www.tripadvisor.in//Restaurant_Review-g196537-d4680266-Reviews-Le_Quatre_Le_4-Vannes_Morbihan_Brittany.html,"3 Place Henri IV, 56000, Vannes France",+33 2 97 47 58 09,,324,3.5,3.5,3.5,3.5,3.0,"Lunch, Dinner",,"French, European",Vegetarian Friendly,,,Aucune distinction,47.657863,-2.7577758,128
columbus cafe & co,https://www.tripadvisor.in//Restaurant_Review-g196537-d8498724-Reviews-Columbus_Cafe_Co-Vannes_Morbihan_Brittany.html,"11, Rue Du Mene, 56000, Vannes France",+33 2 97 60 09 07, Open now: ,43,4.0,4.5,4.5,4.0,,"Breakfast, Lunch",,Cafe,,4.0,8.0,Aucune distinction,47.6590899,-2.7568697,129
le chatelet,https://www.tripadvisor.in//Restaurant_Review-g196537-d25275281-Reviews-Le_Chatelet-Vannes_Morbihan_Brittany.html,"27 rue des Halles, 56000, Vannes France",Improve this listing,,8,,,,,,,Reservations,French,,,,Aucune distinction,47.6574902,-2.7582268,130
cap ouest,https://www.tripadvisor.in//Restaurant_Review-g196537-d3534178-Reviews-Cap_Ouest-Vannes_Morbihan_Brittany.html,,,,0,,,,,,,,,,,,Aucune distinction,46.3144754,11.0480288,131
cote patio,https://www.tripadvisor.in//Restaurant_Review-g196537-d4088206-Reviews-Cote_Patio-Vannes_Morbihan_Brittany.html,"6 Place de la Liberation Entrée par le sas de l'hôtel, 56000, Vannes France",+33 2 97 63 20 20, Closed now: ,44,4.0,4.0,4.0,3.5,,"Dinner, Breakfast, Drinks",,"Bar, European, Contemporary",,10.0,32.0,Aucune distinction,,,132
le gwened,https://www.tripadvisor.in//Restaurant_Review-g196537-d5800189-Reviews-Le_gwened-Vannes_Morbihan_Brittany.html,"Kerluherne, 56000, Vannes France",+33 2 90 73 33 32, Open now: ,21,4.5,4.0,4.5,4.5,,"Lunch, Dinner","Reservations, Seating, Wheelchair Accessible, Table Service",French,,,,Aucune distinction,47.6750683,-2.7985992,133
a l'aise breizh cafe,https://www.tripadvisor.in//Restaurant_Review-g196537-d1860175-Reviews-A_l_Aise_Breizh_Cafe-Vannes_Morbihan_Brittany.html,"4 rue du Commerce Port de Plaisance, 56000, Vannes France",+33 2 97 68 15 89, Open now: ,673,3.5,3.5,3.5,3.5,3.5,"Lunch, Dinner, Brunch, After-hours, Drinks",,"French, Bar, European",,11.0,29.0,Aucune distinction,,,134
saveurs du monde,https://www.tripadvisor.in//Restaurant_Review-g1158736-d6019882-Reviews-Saveurs_du_Monde-Ploeren_Vannes_Morbihan_Brittany.html,"7, avenue Eric Tabarly, 56880 Ploeren, Vannes France",+33 2 97 61 12 55,,17,4.5,5.0,5.0,4.5,,"Lunch, Dinner","Takeout, Reservations, Seating, Wheelchair Accessible, Table Service","Middle Eastern, Afghan",,,,Aucune distinction,47.6552369,-2.8734588,135
restaurant vietnamien huế,https://www.tripadvisor.in//Restaurant_Review-g196537-d26125568-Reviews-Restaurant_Vietnamien_Hu-Vannes_Morbihan_Brittany.html,"35 Rue Marechal Leclerc, 56000, Vannes France",+33 2 97 67 98 51, Closed now: ,8,,,,,,"Lunch, Dinner","Reservations, Takeout, Serves Alcohol, Wine and Beer, Accepts Visa, Accepts Credit Cards, Table Service, Dog Friendly",Vietnamese,,,,Aucune distinction,47.6583353,-2.7498814,136
leyeti,https://www.tripadvisor.in//Restaurant_Review-g196537-d4256062-Reviews-LeYeti-Vannes_Morbihan_Brittany.html,"78 boulevard de la Paix, 56000, Vannes France",+33 7 66 67 88 05, Closed now: ,100,3.5,3.5,3.5,3.0,,"Dinner, After-hours, Drinks",,French,,19.0,28.0,Aucune distinction,47.6591382,-2.7497041,137
le rest’o,https://www.tripadvisor.in//Restaurant_Review-g196537-d24014387-Reviews-Le_Rest_O-Vannes_Morbihan_Brittany.html,"4 rue Aristide Boucicaut, 56000, Vannes France",+33 2 97 01 00 32, Closed now: ,15,,,,,,"Dinner, Lunch","Reservations, Seating, Table Service, Parking Available, Validated Parking, Highchairs Available, Wheelchair Accessible, Accepts Mastercard, Accepts Visa, Accepts Credit Cards, Playgrounds, Dog Friendly, Family style",French,,,,Aucune distinction,47.6712153,-2.7920196,138
tablapizza,https://www.tripadvisor.in//Restaurant_Review-g196537-d3859268-Reviews-Tablapizza-Vannes_Morbihan_Brittany.html,,,,0,,,,,,,,,,,,Aucune distinction,46.3144754,11.0480288,139
dans un autre monde,https://www.tripadvisor.in//Restaurant_Review-g196537-d5865713-Reviews-Dans_Un_Autre_Monde-Vannes_Morbihan_Brittany.html,"6 rue de l Etang, 56000, Vannes France",+33 2 97 47 81 66, Closed now: ,12,,,,,,Dinner,,"Bar, Pub",,,,Aucune distinction,47.6591649,-2.7511947,140
cafe arthur,https://www.tripadvisor.in//Restaurant_Review-g196537-d15051913-Reviews-Cafe_Arthur-Vannes_Morbihan_Brittany.html,,,,0,,,,,,,,,,,,Aucune distinction,46.3144754,11.0480288,141
alain chartier glacier,https://www.tripadvisor.in//Restaurant_Review-g196537-d23031633-Reviews-Alain_Chartier_Glacier-Vannes_Morbihan_Brittany.html,"25 Place des Lices, 56000, Vannes France",+33 2 97 01 93 78,,14,,,,,,,,French,,,,Aucune distinction,47.6564631,-2.7574131,142
cook'si,https://www.tripadvisor.in//Restaurant_Review-g196537-d23987104-Reviews-Cook_si-Vannes_Morbihan_Brittany.html,,,,0,,,,,,,,,,,,Aucune distinction,46.3144754,11.0480288,143
yamu cuisine + foodstore,https://www.tripadvisor.in//Restaurant_Review-g196537-d21173902-Reviews-Yamu_Cuisine_Foodstore-Vannes_Morbihan_Brittany.html,"25 avenue Saint Symphorien, 56000, Vannes France",+33 2 97 68 58 19,Closes in 11 min:  See all hours,8,,,,,,"Breakfast, Lunch, Drinks",,"Italian, Spanish, Asian, Middle Eastern",,12.0,22.0,Aucune distinction,47.6626689,-2.7555158,144
le bayou,https://www.tripadvisor.in//Restaurant_Review-g1158736-d8300177-Reviews-Le_Bayou-Ploeren_Vannes_Morbihan_Brittany.html,,,,0,,,,,,,,,,,,Aucune distinction,46.3144754,11.0480288,145
le 12,https://www.tripadvisor.in//Restaurant_Review-g196537-d23278182-Reviews-Le_12_14-Vannes_Morbihan_Brittany.html,"4 rue Alfred Kastler, 56000, Vannes France",+33 6 25 67 36 20, Closed now: ,11,,,,,,"Lunch, Dinner","Reservations, Seating, Accepts Credit Cards, Table Service",French,,,,Aucune distinction,47.6428797,-2.7456648,146
s7ven,https://www.tripadvisor.in//Restaurant_Review-g196537-d19655634-Reviews-S7ven-Vannes_Morbihan_Brittany.html,"7 rue Lepine, 56000, Vannes France",+33 2 97 41 66 85, Closed now: ,15,,,,,,"Lunch, Breakfast, Dinner, After-hours, Drinks","Reservations, Seating, Table Service, Takeout, Outdoor Seating, Private Dining, Parking Available, Street Parking, Validated Parking, Television, Highchairs Available, Serves Alcohol, Wine and Beer, Accepts Visa, Accepts Credit Cards, Family style, Sports bars","Mediterranean, Spanish, Dining bars",,,,Aucune distinction,47.6665005,-2.7850737,147
breizh pizza cliscouet vannes,https://www.tripadvisor.in//Restaurant_Review-g196537-d8757612-Reviews-Breizh_Pizza_Cliscouet_Vannes-Vannes_Morbihan_Brittany.html,"8 avenue de Suffren, 56000, Vannes France",+33 2 97 40 87 88,,13,,,,,,Dinner,,"Italian, Pizza",,5.0,13.0,Aucune distinction,47.641235,-2.776347,148
piou piou,https://www.tripadvisor.in//Restaurant_Review-g196537-d15207628-Reviews-Piou_Piou-Vannes_Morbihan_Brittany.html,"10 rue du Docteur Joseph Audic, 56000, Vannes France",+33 2 97 13 08 77,,10,4.5,4.5,4.5,4.5,,,Reservations,French,,,,Aucune distinction,47.6791403,-2.7736889,149
la petite vitesse,https://www.tripadvisor.in//Restaurant_Review-g196537-d11993828-Reviews-La_Petite_Vitesse-Vannes_Morbihan_Brittany.html,,,,0,,,,,,,,,,,,Aucune distinction,46.3144754,11.0480288,150
brooklyn cafe,https://www.tripadvisor.in//Restaurant_Review-g196537-d4240831-Reviews-Brooklyn_Cafe-Vannes_Morbihan_Brittany.html,"14 rue Jacques Rueff Atlanville, 56000, Vannes France",+33 2 97 46 27 15, Open now: ,106,3.5,3.5,3.5,3.5,4.0,"Dinner, Lunch","Seating, Wheelchair Accessible, Free Wifi, Accepts Credit Cards, Table Service, Reservations, Serves Alcohol",American,,,,Aucune distinction,,,151
japan cafe,https://www.tripadvisor.in//Restaurant_Review-g196537-d17781479-Reviews-Japan_Cafe-Vannes_Morbihan_Brittany.html,"16 rue des Halles, 56000, Vannes France",+33 9 86 75 52 56, Closed now: ,16,4.5,5.0,5.0,4.5,,Drinks,,"Cafe, Japanese sweets parlour",,4.0,6.0,Aucune distinction,47.6572803,-2.7579034,152
creperie de la tour trompette,https://www.tripadvisor.in//Restaurant_Review-g196537-d3411180-Reviews-Creperie_de_La_Tour_Trompette-Vannes_Morbihan_Brittany.html,"4, Rue Venelle, 56000, Vannes France",+33 2 97 47 15 12, Closed now: ,884,3.5,3.5,3.5,3.0,3.0,"Lunch, Dinner, After-hours","Reservations, Outdoor Seating, Seating, Highchairs Available, Serves Alcohol, Accepts Credit Cards, Table Service","French, European",,,,Aucune distinction,47.6657917,-2.5815248,153
les toques du bocal,https://www.tripadvisor.in//Restaurant_Review-g196537-d19921261-Reviews-Les_Toques_du_Bocal-Vannes_Morbihan_Brittany.html,"2 rue Lepine Parc Lann, 56000, Vannes France",+33 9 83 20 41 51,,9,,,,,,,Reservations,,,,,Aucune distinction,47.6665005,-2.7850737,154
la glaneuse,https://www.tripadvisor.in//Restaurant_Review-g196537-d23550381-Reviews-La_Glaneuse-Vannes_Morbihan_Brittany.html,"10 rue Carnot, 56000, Vannes France",+33 2 97 68 82 15, Closed now: ,7,,,,,,"Breakfast, Lunch, Brunch, Drinks","Takeout, Reservations, Outdoor Seating, Street Parking, Wheelchair Accessible, Accepts Mastercard, Accepts Visa, Free Wifi, Accepts Credit Cards, Table Service, Dog Friendly",French,,,,Aucune distinction,47.6543487,-2.7590677,155
la bicyclette,https://www.tripadvisor.in//Restaurant_Review-g196537-d7017412-Reviews-La_Bicyclette-Vannes_Morbihan_Brittany.html,"6 allee Gabriel Lippmann, 56000, Vannes France",+33 2 97 42 40 55,,32,4.0,4.5,4.5,4.0,,Lunch,,French,Vegetarian Friendly,,,Aucune distinction,47.6420409,-2.7558054,156
les josephine,https://www.tripadvisor.in//Restaurant_Review-g196537-d24110181-Reviews-Les_Josephine-Vannes_Morbihan_Brittany.html,"8 rue des Orfevres, 56000, Vannes France",+33 2 97 47 28 18, Closed now: ,41,3.5,3.5,3.5,3.5,,"Dinner, Lunch","Reservations, Seating, Table Service",French,,,,Aucune distinction,47.6570345,-2.7575087,157
le comptoir de jeanne,https://www.tripadvisor.in//Restaurant_Review-g196537-d23966903-Reviews-Le_Comptoir_De_Jeanne-Vannes_Morbihan_Brittany.html,"6 Place du Poids Public, 56000, Vannes France",+33 2 97 47 29 18, Closed now: ,32,3.5,3.5,4.5,3.5,,"Lunch, Dinner","Reservations, Seating, Accepts Credit Cards, Table Service","French, Seafood, European",,,,Aucune distinction,47.6555333,-2.757461,158
les valseuses,https://www.tripadvisor.in//Restaurant_Review-g196537-d10342667-Reviews-Les_valseuses-Vannes_Morbihan_Brittany.html,"12 rue de la Porte Poterne, 56000, Vannes France",+33 2 97 26 86 15,,49,4.0,3.5,3.5,4.0,,,"Seating, Serves Alcohol, Accepts Credit Cards","French, Pub",,,,Aucune distinction,,,159
flunch,https://www.tripadvisor.in//Restaurant_Review-g196537-d12124139-Reviews-Flunch-Vannes_Morbihan_Brittany.html,"Rue Aristide Boucicaut Centre Commercial Leclerc, 56000, Vannes France",+33 2 97 46 61 77, Open now: ,50,3.5,3.5,4.0,3.5,,"Lunch, Dinner",,French,,11.0,20.0,Aucune distinction,,,160
pizza deluda,https://www.tripadvisor.in//Restaurant_Review-g196537-d24088868-Reviews-Pizza_Deluda-Vannes_Morbihan_Brittany.html,"Esplanade Jean Bertho Rue Guillaume Le Bartz, 56000, Vannes France",+33 7 65 66 29 94, Closed now: ,6,,,,,,Dinner,,"Italian, Pizza",,,,Aucune distinction,,,161
le molux,https://www.tripadvisor.in//Restaurant_Review-g196537-d26686197-Reviews-Le_Molux-Vannes_Morbihan_Brittany.html,"28 Rue Du Port, 56000, Vannes France",0297474834, Closed now: ,5,,,,,,"Lunch, Dinner","Takeout, Reservations, Outdoor Seating, Seating, Highchairs Available, Wheelchair Accessible, Serves Alcohol, Accepts Mastercard, Dog Friendly",Seafood,,,,Aucune distinction,47.6529308,-2.7593918,162
ty prat,https://www.tripadvisor.in//Restaurant_Review-g196537-d7189013-Reviews-TY_Prat-Vannes_Morbihan_Brittany.html,,,,0,,,,,,,,,,,,Aucune distinction,46.3144754,11.0480288,163
le petit marmiton,https://www.tripadvisor.in//Restaurant_Review-g1158736-d3687346-Reviews-Le_Petit_Marmiton-Ploeren_Vannes_Morbihan_Brittany.html,"Zone D Activite de Luscanen, 56880 Ploeren, Vannes France",+33 2 97 46 43 38,,14,4.0,3.5,4.0,3.5,,"Lunch, Dinner","Reservations, Seating, Table Service, Wheelchair Accessible",French,,,,Aucune distinction,,,164
le palais du tajmahal,https://www.tripadvisor.in//Restaurant_Review-g196537-d25078433-Reviews-Le_Palais_Du_Tajmahal-Vannes_Morbihan_Brittany.html,"11 rue de la Fontaine 11, 56000, Vannes France",Improve this listing,,4,,,,,,,,Indian,,,,Aucune distinction,,,165
le bistrot de la gare,https://www.tripadvisor.in//Restaurant_Review-g196537-d7239464-Reviews-Le_Bistrot_de_la_Gare-Vannes_Morbihan_Brittany.html,"28 avenue Favrel Et Lincy Station, 56000, Vannes France",+33 2 97 62 03 08, Closed now: ,63,3.5,3.5,3.5,3.5,,"Lunch, Dinner","Accepts Mastercard, Accepts Visa, Reservations, Seating, Full Bar, Serves Alcohol, Accepts Credit Cards, Table Service",French,,,,Aucune distinction,,,166
campanile vannes restaurant,https://www.tripadvisor.in//Restaurant_Review-g196537-d6702580-Reviews-Campanile_Vannes_Restaurant-Vannes_Morbihan_Brittany.html,"Zac du Chapeau Rouge, 56000, Vannes France",+33 2 97 45 55 19, Closed now: ,43,3.5,3.0,3.5,3.0,,"Breakfast, Lunch, Dinner","Reservations, Seating, Wheelchair Accessible, Serves Alcohol, Table Service",French,,,,Aucune distinction,,,167
brochettes d'or,https://www.tripadvisor.in//Restaurant_Review-g196537-d6362959-Reviews-Brochettes_d_Or-Vannes_Morbihan_Brittany.html,"2 Place Maurice Marchais, 56000, Vannes France",+33 2 97 60 34 12,,20,4.0,4.0,4.5,4.0,,"Lunch, Dinner","Takeout, Seating, Table Service, Reservations","Fast food, Turkish, Middle Eastern",,,,Aucune distinction,47.6583465,-2.760365512085075,168
le cafe d'eleonore - jean galloyer,https://www.tripadvisor.in//Restaurant_Review-g1158736-d21088858-Reviews-Le_Cafe_D_eleonore_Jean_Galloyer-Ploeren_Vannes_Morbihan_Brittany.html,"14b Avenue Louis De Cadoudal Ploeren, 56880 Ploeren, Vannes France",Improve this listing,,4,,,,,,,,French,,,,Aucune distinction,47.6649788,-2.7969216,169
la table de nicole,https://www.tripadvisor.in//Restaurant_Review-g1158736-d6581219-Reviews-La_table_de_Nicole-Ploeren_Vannes_Morbihan_Brittany.html,"22 rue des 2 Moulins, 56880 Ploeren, Vannes France",+33 2 97 62 34 10, Open now: ,8,4.0,4.0,4.0,4.0,,"Lunch, Dinner, Drinks","Wheelchair Accessible, Serves Alcohol, Delivery, Outdoor Seating, Parking Available, Validated Parking, Free off-street parking, Highchairs Available, Wine and Beer, Accepts Mastercard, Accepts Visa, Digital Payments, Free Wifi, Accepts Credit Cards, Family style",,,11.0,20.0,Aucune distinction,,,170
la comida,https://www.tripadvisor.in//Restaurant_Review-g196537-d15003428-Reviews-La_Comida-Vannes_Morbihan_Brittany.html,"4 Place des Lices, 56000, Vannes France",+33 6 09 98 60 62,,8,,,,,,,Reservations,Mexican,,,,Aucune distinction,47.655829600000004,-2.7565620426136364,171
l'odyssee des sens,https://www.tripadvisor.in//Restaurant_Review-g196537-d12475160-Reviews-L_Odyssee_des_Sens-Vannes_Morbihan_Brittany.html,,,,0,,,,,,,,,,,,Aucune distinction,46.3144754,11.0480288,172
bar de la compagnie,https://www.tripadvisor.in//Restaurant_Review-g196537-d8562052-Reviews-Bar_de_la_Compagnie-Vannes_Morbihan_Brittany.html,"95 avenue de la Marne Centre Commercial Carrefour Vannes, Zone de Fourchene, 56000, Vannes France",+33 2 97 63 50 92,,49,3.5,3.5,3.5,3.5,,"Lunch, Dinner","Seating, Wheelchair Accessible, Table Service, Reservations, Serves Alcohol",French,,,,Aucune distinction,,,173
satake,https://www.tripadvisor.in//Restaurant_Review-g196537-d6404130-Reviews-Satake-Vannes_Morbihan_Brittany.html,"35 rue du Marechal Leclerc, 56000, Vannes France",Improve this listing,,52,3.5,4.0,3.0,4.0,,"Dinner, Lunch","Delivery, Takeout, Seating, Reservations, Serves Alcohol","Japanese, Sushi, Asian",,,,Aucune distinction,47.5520467,-2.4818212,174
hippopotamus,https://www.tripadvisor.in//Restaurant_Review-g196537-d2623225-Reviews-Hippopotamus-Vannes_Morbihan_Brittany.html,,,,0,,,,,,,,,,,,Aucune distinction,46.3144754,11.0480288,175
la huche a pain,https://www.tripadvisor.in//Restaurant_Review-g196537-d12694727-Reviews-La_Huche_a_Pain-Vannes_Morbihan_Brittany.html,"2 rue du Capitaine Jude Rond Point du Palais des Arts, 56000, Vannes France",+33 2 97 47 89 05,,20,4.0,4.5,3.5,4.0,,Breakfast,Takeout,,,,,Aucune distinction,,,176
bistrot st edouard,https://www.tripadvisor.in//Restaurant_Review-g196537-d8119661-Reviews-Bistrot_St_Edouard-Vannes_Morbihan_Brittany.html,"15 rue Aristide Boucicaut Galerie Ccial Leclerc Kerlann, 56000, Vannes France",+33 2 97 63 83 45, Open now: ,60,3.5,3.0,3.5,3.0,,"Lunch, Drinks",,"French, Bar, Pub",,8.0,23.0,Aucune distinction,,,177
ladid food,https://www.tripadvisor.in//Restaurant_Review-g196537-d19905346-Reviews-Ladid_food-Vannes_Morbihan_Brittany.html,,,,0,,,,,,,,,,,,Aucune distinction,46.3144754,11.0480288,178
le tarmac,https://www.tripadvisor.in//Restaurant_Review-g196537-d7310564-Reviews-Le_Tarmac-Vannes_Morbihan_Brittany.html,"25 rue Ferdinand le Dressay, 56000, Vannes France",+33 2 97 47 58 27, Open now: ,319,3.0,3.0,3.0,2.5,,"Lunch, Dinner, Drinks","Reservations, Outdoor Seating, Seating, Wheelchair Accessible, Serves Alcohol, Full Bar, Table Service","French, Bar, European",,,,Aucune distinction,47.652762,-2.7574946,179
la fine bouche,https://www.tripadvisor.in//Restaurant_Review-g1158736-d6575276-Reviews-La_Fine_Bouche-Ploeren_Vannes_Morbihan_Brittany.html,"Direction le Bourg-Rue Guernehue, 56880 Ploeren, Vannes France",Improve this listing,,10,,,,,,Dinner,,"Italian, Pizza, Seafood",,,,Aucune distinction,,,180
aden,https://www.tripadvisor.in//Restaurant_Review-g196537-d25371147-Reviews-Aden-Vannes_Morbihan_Brittany.html,"25 rue du marechal leclerc, 56000, Vannes France",Improve this listing,,3,,,,,,"Lunch, Dinner",,"Philippine, Pizza, Mediterranean, Asian, Turkish, Diner",,,,Aucune distinction,47.5520467,-2.4818212,181
mercure hotel,https://www.tripadvisor.in//Restaurant_Review-g196537-d6947174-Reviews-Mercure_Hotel-Vannes_Morbihan_Brittany.html,,,,0,,,,,,,,,,,,Aucune distinction,46.3144754,11.0480288,182
l'express kebab,https://www.tripadvisor.in//Restaurant_Review-g196537-d12172732-Reviews-L_Express_Kebab-Vannes_Morbihan_Brittany.html,"80 avenue du 4 Aout 1944, 56000, Vannes France",+33 9 54 66 52 20,,16,,,,,,,"Seating, Table Service","Fast food, Turkish, Middle Eastern",,2.0,15.0,Aucune distinction,47.6836616,-2.7660452,183
lily sushi,https://www.tripadvisor.in//Restaurant_Review-g196537-d24063595-Reviews-Lily_Sushi-Vannes_Morbihan_Brittany.html,"16 rue du Port, 56000, Vannes France",+33 6 95 88 97 10, Closed now: ,3,,,,,,Dinner,,Japanese,,,,Aucune distinction,47.6533363,-2.7595302,184
l'as du kebab,https://www.tripadvisor.in//Restaurant_Review-g196537-d21182583-Reviews-L_as_Du_Kebab-Vannes_Morbihan_Brittany.html,"1 Avenue Du President Wilson, 56000, Vannes France",+33 2 90 73 84 58, Closed now: ,4,,,,,,"Lunch, Dinner",,"French, Turkish",,5.0,15.0,Aucune distinction,,,185
le saint-nicolas,https://www.tripadvisor.in//Restaurant_Review-g196537-d4825682-Reviews-Le_Saint_Nicolas-Vannes_Morbihan_Brittany.html,"31 rue Francis Decker, 56000, Vannes France",+33 2 97 54 03 00, Open now: ,53,3.5,3.5,3.5,3.5,,"Lunch, Breakfast","Reservations, Seating, Wheelchair Accessible, Serves Alcohol, Accepts Credit Cards, Table Service","French, Bar, Pub",,,,Aucune distinction,47.6584911,-2.7550701,186
creperie les josephine,https://www.tripadvisor.in//Restaurant_Review-g196537-d26353384-Reviews-Creperie_Les_Josephine-Vannes_Morbihan_Brittany.html,"8 Rue des Orfevres, Vannes France",Improve this listing,,7,,,,,,,,French,,,,Aucune distinction,47.6570345,-2.7575087,187
le restaurant ibis vannes,https://www.tripadvisor.in//Restaurant_Review-g196537-d12600187-Reviews-Le_Restaurant_Ibis_Vannes-Vannes_Morbihan_Brittany.html,"31 rue Henri Matisse Quartier de Menimur ibis Vannes, 56000, Vannes France",+33 2 97 63 61 11,,6,,,,,,,,International,,,,Aucune distinction,,,188
tika kabab,https://www.tripadvisor.in//Restaurant_Review-g196537-d26545417-Reviews-Tika_kabab-Vannes_Morbihan_Brittany.html,,,,0,,,,,,,,,,,,Aucune distinction,46.3144754,11.0480288,189
restaurant la boucherie,https://www.tripadvisor.in//Restaurant_Review-g196537-d25006119-Reviews-Restaurant_La_Boucherie-Vannes_Morbihan_Brittany.html,"Rue Du, Rue Gay Lussac, 56000, Vannes France",+33 2 97 46 03 04,,3,,,,,,,,French,,,,Aucune distinction,,,190
kahina restaurant berbere,https://www.tripadvisor.in//Restaurant_Review-g196537-d26307878-Reviews-Kahina_Restaurant_Berbere-Vannes_Morbihan_Brittany.html,"19 Rue De La Fontaine, 56000 , Vannes France",+33 9 88 00 88 98,,2,,,,,,"Lunch, Dinner",,"Moroccan, Mediterranean, Tunisian, Algerian",,,,Aucune distinction,47.6596546,-2.7547326,191
le djurdjura,https://www.tripadvisor.in//Restaurant_Review-g196537-d20258565-Reviews-Le_Djurdjura-Vannes_Morbihan_Brittany.html,"47 rue du Marechal Leclerc, 56000, Vannes France",+33 2 97 45 05 43,,5,,,,,,,,,,,,Aucune distinction,47.5520467,-2.4818212,192
vabene,https://www.tripadvisor.in//Restaurant_Review-g196537-d17752154-Reviews-Vabene-Vannes_Morbihan_Brittany.html,"13 B rue Hoche, 56000, Vannes France",+33 2 97 69 61 04,,4,,,,,,,,Italian,,9.0,15.0,Aucune distinction,47.641112,-2.949879,193
l'entract',https://www.tripadvisor.in//Restaurant_Review-g196537-d1331885-Reviews-L_Entract-Vannes_Morbihan_Brittany.html,"138 rue Alain Gerbault, 56000, Vannes France",+33 2 97 42 56 24, Closed now: ,31,3.5,3.5,4.0,3.5,3.5,Lunch,"Reservations, Seating, Serves Alcohol, Table Service, Wheelchair Accessible",French,,,,Aucune distinction,47.6658248,-2.7321524,194
cafe restaurant le 67,https://www.tripadvisor.in//Restaurant_Review-g196537-d11841501-Reviews-Cafe_Restaurant_Le_67-Vannes_Morbihan_Brittany.html,"67 rue Anita Conti, 56000, Vannes France",+33 9 51 33 63 84, Open now: ,4,,,,,,"Breakfast, Lunch, Dinner",,,,,,Aucune distinction,47.6701157,-2.7876475,195
bar de l'hotel de ville,https://www.tripadvisor.in//Restaurant_Review-g196537-d10832799-Reviews-Bar_de_L_Hotel_de_Ville-Vannes_Morbihan_Brittany.html,,,,0,,,,,,,,,,,,Aucune distinction,46.3144754,11.0480288,196
fika pauses gourmandes,https://www.tripadvisor.in//Restaurant_Review-g196537-d17932570-Reviews-Fika_Pauses_Gourmandes-Vannes_Morbihan_Brittany.html,,,,0,,,,,,,,,,,,Aucune distinction,46.3144754,11.0480288,197
domino's pizza,https://www.tripadvisor.in//Restaurant_Review-g196537-d15289837-Reviews-Domino_s_Pizza-Vannes_Morbihan_Brittany.html,"51 boulevard de la Paix, 56000, Vannes France",+33 2-97-69-21-21, Closed now: ,6,,,,,,"Lunch, Dinner",,"French, Italian",,5.0,10.0,Aucune distinction,47.6591382,-2.7497041,198
-1960 evenements,https://www.tripadvisor.in//Restaurant_Review-g196537-d10178222-Reviews-1960_Evenements-Vannes_Morbihan_Brittany.html,"10 rue Camille Saint Saens, 56000, Vannes France",+33 6 51 52 16 76,,2,,,,,,,,French,,3.0,10.0,Aucune distinction,47.6558381,-2.730096,199
empreinte,https://www.tripadvisor.in//Restaurant_Review-g196537-d26358611-Reviews-Empreinte-Vannes_Morbihan_Brittany.html,"15  Place Valencia, Vannes France",+33 2 97 46 06 42, Closed now: ,1,,,,,,"Lunch, Dinner",,"French, Healthy, Indigenous",,,,Guide michelin,47.6568575,-2.75739479166667,200
bar brasserie le fourchene,https://www.tripadvisor.in//Restaurant_Review-g196537-d19891840-Reviews-Bar_Brasserie_Le_Fourchene-Vannes_Morbihan_Brittany.html,"Rue du Vincin, 56000, Vannes France",+33 2 97 63 10 28,,2,,,,,,,,,,,,Aucune distinction,47.6498181,-2.7967588,201
bret'on pizza,https://www.tripadvisor.in//Restaurant_Review-g196537-d8755458-Reviews-Bret_On_Pizza-Vannes_Morbihan_Brittany.html,"5 Place de la Madeleine, 56000, Vannes France",+33 2 97 63 02 02,,26,3.5,4.5,4.5,4.0,,Dinner,"Takeout, Delivery, Wheelchair Accessible","Pizza, Italian",,,,Aucune distinction,47.6589152,-2.7720951,202
le fournil des 3 rois,https://www.tripadvisor.in//Restaurant_Review-g196537-d19754631-Reviews-Le_fournil_des_3_rois-Vannes_Morbihan_Brittany.html,"181 avenue du 4 Aout 1944, 56000, Vannes France",+33 2 97 42 46 64,,2,,,,,,,,,,,,Aucune distinction,47.6821563,-2.7657078,203
delicecafe,https://www.tripadvisor.in//Restaurant_Review-g196537-d23729162-Reviews-Delicecafe-Vannes_Morbihan_Brittany.html,"7 Place des Lices, 56000, Vannes France",+33 2 97 54 23 31,,1,,,,,,,,French,,,,Aucune distinction,47.6559029,-2.7574844,204
zizzie pizza al taglio,https://www.tripadvisor.in//Restaurant_Review-g196537-d11793311-Reviews-Zizzie_Pizza_Al_Taglio-Vannes_Morbihan_Brittany.html,"9 rue de la Porte Poterne, 56000, Vannes France",Improve this listing,,9,,,,,,,,"Italian, Pizza",,,,Aucune distinction,,,205
feel juice,https://www.tripadvisor.in//Restaurant_Review-g196537-d15003808-Reviews-Feel_Juice-Vannes_Morbihan_Brittany.html,"12 rue Joseph le Brix, 56000, Vannes France",+33 2 97 67 20 30,,5,,,,,,,,Soups,,4.0,15.0,Aucune distinction,47.6589574,-2.7585312,206
the pattern,https://www.tripadvisor.in//Restaurant_Review-g196537-d17418036-Reviews-The_Pattern-Vannes_Morbihan_Brittany.html,"20 rue Saint Patern, 56000, Vannes France",0297478544,,20,,,,,,,"Accepts Credit Cards, Reservations, Seating",,,,,Aucune distinction,47.6593302,-2.7534453,207
mons,https://www.tripadvisor.in//Restaurant_Review-g196537-d23404197-Reviews-Mons-Vannes_Morbihan_Brittany.html,"2 Place de Mons, 56000, Vannes France",+33 2 97 63 27 92,,3,,,,,,,,"French, Pizza",,,,Aucune distinction,47.6557035,-2.7709931,208
le vieux port,https://www.tripadvisor.in//Restaurant_Review-g196537-d4225449-Reviews-Le_vieux_Port-Vannes_Morbihan_Brittany.html,"Rue du Port, Vannes France",+33 2 97 47 93 93,,96,3.0,3.0,3.5,3.5,3.0,"Lunch, Dinner","Reservations, Seating, Wheelchair Accessible, Serves Alcohol, Table Service, Outdoor Seating",French,,,,Aucune distinction,47.653719,-2.7593948,209
ty kinoa,https://www.tripadvisor.in//Restaurant_Review-g196537-d23649850-Reviews-Ty_Kinoa-Vannes_Morbihan_Brittany.html,,,,0,,,,,,,,,,,,Aucune distinction,46.3144754,11.0480288,210
l'enchanthe,https://www.tripadvisor.in//Restaurant_Review-g196537-d26454891-Reviews-L_enchanThe-Vannes_Morbihan_Brittany.html,"15, place du general  de Gaulle, 56000, Vannes France",+33 2 90 79 94 06,,0,,,,,,"Lunch, Brunch",,"French, Mediterranean",,,,Aucune distinction,47.658617,-2.7535046,211
fabrizio,https://www.tripadvisor.in//Restaurant_Review-g196537-d26688145-Reviews-Fabrizio-Vannes_Morbihan_Brittany.html,"Rue Saint Patern, Vannes France",Improve this listing,,0,,,,,,Dinner,"Outdoor Seating, Seating, Free Wifi, Accepts Credit Cards",Italian,,,,Aucune distinction,47.6593459,-2.7535851,212
mamie paulette,https://www.tripadvisor.in//Restaurant_Review-g196537-d25354239-Reviews-MAMIE_PAULETTE-Vannes_Morbihan_Brittany.html,,,,0,,,,,,,,,,,,Aucune distinction,46.3144754,11.0480288,213
pizzo food,https://www.tripadvisor.in//Restaurant_Review-g196537-d15293544-Reviews-Pizzo_food-Vannes_Morbihan_Brittany.html,"1 Rue Paul Cezanne, 56000, Vannes France",+33 2 97 49 09 31,,0,,,,,,,,"Pizza, Fast food",,5.0,13.0,Aucune distinction,47.693179,-2.7488299,214
cappadoce restaurant,https://www.tripadvisor.in//Restaurant_Review-g196537-d23701029-Reviews-Cappadoce_Restaurant-Vannes_Morbihan_Brittany.html,"100 Bis Av. Du 4 Aout 1944, 56000 Vannes, 56000, Vannes France",+33 9 84 27 61 74,Opens in 10 min: ,0,,,,,,Dinner,,"Cafe, Barbecue, Turkish",,,,Aucune distinction,47.676102,-2.7598369180840305,215
kusmi tea | vannes,https://www.tripadvisor.in//Restaurant_Review-g196537-d23433962-Reviews-Kusmi_Tea_Vannes-Vannes_Morbihan_Brittany.html,"13 rue Saint Vincent, 56000, Vannes France",+33 2-97-44-53-79, Open now: ,0,,,,,,"Lunch, Dinner",,,,,,Aucune distinction,47.7639137,-2.1350958,216
francois kouign amann - crepes - gateaux breton,https://www.tripadvisor.in//Restaurant_Review-g196537-d26450903-Reviews-Francois_Kouign_Amann_Crepes_Gateaux_Breton-Vannes_Morbihan_Brittany.html,,,,0,,,,,,,,,,,,Aucune distinction,46.3144754,11.0480288,217
ty vira,https://www.tripadvisor.in//Restaurant_Review-g196537-d26492209-Reviews-Ty_Vira-Vannes_Morbihan_Brittany.html,"11 rue Thiers, 56000, Vannes France",+33 7 86 17 95 71, Closed now: ,0,,,,,,"Lunch, Dinner, Drinks",,"European, Asian",,,,Aucune distinction,47.6564369,-2.759698,218
les charmettes quelneuc,https://www.tripadvisor.in//Restaurant_Review-g8737712-d19353042-Reviews-Les_Charmettes_Quelneuc-Quelneuc_Vannes_Morbihan_Brittany.html,"Le Bourg, 56910 Quelneuc, Vannes France",+33 2 99 93 79 75,,0,,,,,,,,French,,,,Aucune distinction,,,219
buffalo grill ploeren,https://www.tripadvisor.in//Restaurant_Review-g1158736-d26842948-Reviews-Buffalo_Grill_Ploeren-Ploeren_Vannes_Morbihan_Brittany.html,"17 Rue Edgar Touffreau Zone de Luscanen, 56880 Ploeren, Vannes France",Improve this listing,,0,,,,,,,,,,,,Aucune distinction,,,220
